{
  "metadata": {
    "generatedAt": "2026-01-02T17:00:45.121Z",
    "queryCount": 9
  },
  "results": {
    "overview": [
      {
        "total_trips": 4110758,
        "unique_stations": 626,
        "earliest_trip": "2025-01-01T03:25:24.269Z",
        "latest_trip": "2025-12-01T07:58:15.320Z",
        "avg_duration_seconds": 800,
        "avg_duration_minutes": 13,
        "total_hours": 913443,
        "member_trips": 3213264,
        "casual_trips": 897494,
        "electric_trips": 3235197,
        "classic_trips": 875561,
        "round_trips": 110478
      }
    ],
    "stations": [
      {
        "station_id": "SF-J29",
        "name": "San Francisco Caltrain Station - Townsend St",
        "latitude": 37.7766,
        "longitude": -122.39528,
        "total_trips": 92955,
        "member_trips": 75121,
        "casual_trips": 17834,
        "round_trips": 441
      },
      {
        "station_id": "SF-E29-2",
        "name": "Market St at Steuart St",
        "latitude": 37.794525,
        "longitude": -122.39488,
        "total_trips": 82006,
        "member_trips": 65036,
        "casual_trips": 16970,
        "round_trips": 672
      },
      {
        "station_id": "SF-G27",
        "name": "Powell St BART North",
        "latitude": 37.786137,
        "longitude": -122.405235,
        "total_trips": 71202,
        "member_trips": 58008,
        "casual_trips": 13194,
        "round_trips": 846
      },
      {
        "station_id": "SF-J23-1",
        "name": "Market St at 10th St",
        "latitude": 37.77662,
        "longitude": -122.41738,
        "total_trips": 65290,
        "member_trips": 56633,
        "casual_trips": 8657,
        "round_trips": 500
      },
      {
        "station_id": "SF-P30",
        "name": "22nd St Caltrain Station",
        "latitude": 37.757706,
        "longitude": -122.391884,
        "total_trips": 55531,
        "member_trips": 47393,
        "casual_trips": 8138,
        "round_trips": 455
      },
      {
        "station_id": "SF-J18",
        "name": "Grove St at Divisadero",
        "latitude": 37.775833,
        "longitude": -122.4376,
        "total_trips": 55114,
        "member_trips": 44664,
        "casual_trips": 10450,
        "round_trips": 473
      },
      {
        "station_id": "SF-E29-1",
        "name": "San Francisco Ferry Building",
        "latitude": 37.79539,
        "longitude": -122.3942,
        "total_trips": 54575,
        "member_trips": 36783,
        "casual_trips": 17792,
        "round_trips": 692
      },
      {
        "station_id": "SF-N22-2",
        "name": "17th St at Valencia St",
        "latitude": 37.763332,
        "longitude": -122.42206,
        "total_trips": 53090,
        "member_trips": 43450,
        "casual_trips": 9640,
        "round_trips": 296
      },
      {
        "station_id": "SF-K19",
        "name": "Page St at Scott St",
        "latitude": 37.772354,
        "longitude": -122.43586,
        "total_trips": 52156,
        "member_trips": 41580,
        "casual_trips": 10576,
        "round_trips": 544
      },
      {
        "station_id": "SF-K20",
        "name": "Pierce St at Haight St",
        "latitude": 37.771793,
        "longitude": -122.43371,
        "total_trips": 51195,
        "member_trips": 41907,
        "casual_trips": 9288,
        "round_trips": 497
      },
      {
        "station_id": "SF-A22",
        "name": "North Point St at Polk St",
        "latitude": 37.805443,
        "longitude": -122.42313,
        "total_trips": 50675,
        "member_trips": 32295,
        "casual_trips": 18380,
        "round_trips": 1045
      },
      {
        "station_id": "SF-G29-1",
        "name": "Salesforce Transit Center",
        "latitude": 37.787502,
        "longitude": -122.3982,
        "total_trips": 50133,
        "member_trips": 43051,
        "casual_trips": 7082,
        "round_trips": 336
      },
      {
        "station_id": "SF-L15",
        "name": "Waller St at Shrader St",
        "latitude": 37.768383,
        "longitude": -122.451965,
        "total_trips": 49779,
        "member_trips": 35512,
        "casual_trips": 14267,
        "round_trips": 1005
      },
      {
        "station_id": "SF-H26",
        "name": "Powell St BART South",
        "latitude": 37.7839,
        "longitude": -122.40845,
        "total_trips": 49536,
        "member_trips": 39065,
        "casual_trips": 10471,
        "round_trips": 548
      },
      {
        "station_id": "SF-F28-3",
        "name": "Sansome St at Sutter St",
        "latitude": 37.790546,
        "longitude": -122.400604,
        "total_trips": 48821,
        "member_trips": 42046,
        "casual_trips": 6775,
        "round_trips": 333
      },
      {
        "station_id": "SF-M20",
        "name": "Sanchez St at 15th St",
        "latitude": 37.76622,
        "longitude": -122.43106,
        "total_trips": 48358,
        "member_trips": 40732,
        "casual_trips": 7626,
        "round_trips": 432
      },
      {
        "station_id": "SF-GGP-03",
        "name": "8th Ave at JFK Dr",
        "latitude": 37.772907,
        "longitude": -122.465935,
        "total_trips": 46724,
        "member_trips": 22701,
        "casual_trips": 24023,
        "round_trips": 2946
      },
      {
        "station_id": "SF-K16",
        "name": "Page St at Masonic Ave",
        "latitude": 37.771133,
        "longitude": -122.44534,
        "total_trips": 44943,
        "member_trips": 34966,
        "casual_trips": 9977,
        "round_trips": 585
      },
      {
        "station_id": "SF-L21",
        "name": "Market St at Dolores St",
        "latitude": 37.769245,
        "longitude": -122.42696,
        "total_trips": 44925,
        "member_trips": 39227,
        "casual_trips": 5698,
        "round_trips": 246
      },
      {
        "station_id": "SF-I30",
        "name": "2nd St at Townsend St",
        "latitude": 37.780525,
        "longitude": -122.39029,
        "total_trips": 44566,
        "member_trips": 34542,
        "casual_trips": 10024,
        "round_trips": 349
      },
      {
        "station_id": "SF-O30-2",
        "name": "Illinois St at 20th St",
        "latitude": 37.76034,
        "longitude": -122.38745,
        "total_trips": 43770,
        "member_trips": 36234,
        "casual_trips": 7536,
        "round_trips": 428
      },
      {
        "station_id": "SF-J21",
        "name": "Laguna St at Hayes St",
        "latitude": 37.77625,
        "longitude": -122.4262,
        "total_trips": 43471,
        "member_trips": 36214,
        "casual_trips": 7257,
        "round_trips": 353
      },
      {
        "station_id": "SF-K29-1",
        "name": "Berry St at 4th St",
        "latitude": 37.775993,
        "longitude": -122.393005,
        "total_trips": 42863,
        "member_trips": 37124,
        "casual_trips": 5739,
        "round_trips": 357
      },
      {
        "station_id": "SF-O22",
        "name": "Mission Playground",
        "latitude": 37.759018,
        "longitude": -122.421455,
        "total_trips": 42860,
        "member_trips": 35667,
        "casual_trips": 7193,
        "round_trips": 347
      },
      {
        "station_id": "SF-M30-4",
        "name": "4th St at Gene Friend Way",
        "latitude": 37.76887,
        "longitude": -122.391106,
        "total_trips": 42715,
        "member_trips": 37811,
        "casual_trips": 4904,
        "round_trips": 224
      },
      {
        "station_id": "SF-J24",
        "name": "8th St at Ringold St",
        "latitude": 37.77452,
        "longitude": -122.40945,
        "total_trips": 41934,
        "member_trips": 35864,
        "casual_trips": 6070,
        "round_trips": 283
      },
      {
        "station_id": "SF-E23",
        "name": "Jackson St at Polk St",
        "latitude": 37.79416,
        "longitude": -122.42157,
        "total_trips": 41020,
        "member_trips": 33403,
        "casual_trips": 7617,
        "round_trips": 326
      },
      {
        "station_id": "SF-K30-3",
        "name": "4th St at Long Bridge St",
        "latitude": 37.773754,
        "longitude": -122.391426,
        "total_trips": 40870,
        "member_trips": 34479,
        "casual_trips": 6391,
        "round_trips": 315
      },
      {
        "station_id": "SF-F29",
        "name": "Howard St at Beale St",
        "latitude": 37.790295,
        "longitude": -122.393875,
        "total_trips": 40519,
        "member_trips": 35549,
        "casual_trips": 4970,
        "round_trips": 260
      },
      {
        "station_id": "SF-J23-2",
        "name": "S Van Ness Ave at Market St",
        "latitude": 37.774815,
        "longitude": -122.41895,
        "total_trips": 40430,
        "member_trips": 35730,
        "casual_trips": 4700,
        "round_trips": 262
      },
      {
        "station_id": "SF-C25",
        "name": "Filbert St at Powell Street",
        "latitude": 37.801155,
        "longitude": -122.41081,
        "total_trips": 39542,
        "member_trips": 29931,
        "casual_trips": 9611,
        "round_trips": 611
      },
      {
        "station_id": "SF-I24",
        "name": "San Francisco Public Library",
        "latitude": 37.778812,
        "longitude": -122.41597,
        "total_trips": 39514,
        "member_trips": 32865,
        "casual_trips": 6649,
        "round_trips": 247
      },
      {
        "station_id": "SF-A20",
        "name": "Buchanan St at North Point St",
        "latitude": 37.804432,
        "longitude": -122.433525,
        "total_trips": 39433,
        "member_trips": 28071,
        "casual_trips": 11362,
        "round_trips": 899
      },
      {
        "station_id": "SF-H29",
        "name": "2nd St at Folsom St",
        "latitude": 37.7852,
        "longitude": -122.39622,
        "total_trips": 38477,
        "member_trips": 32342,
        "casual_trips": 6135,
        "round_trips": 326
      },
      {
        "station_id": "SF-J22-2",
        "name": "Grove St at Gough St",
        "latitude": 37.77787,
        "longitude": -122.42295,
        "total_trips": 38372,
        "member_trips": 32578,
        "casual_trips": 5794,
        "round_trips": 221
      },
      {
        "station_id": "SF-O21",
        "name": "Mission Dolores Park",
        "latitude": 37.76142,
        "longitude": -122.42644,
        "total_trips": 38211,
        "member_trips": 30495,
        "casual_trips": 7716,
        "round_trips": 311
      },
      {
        "station_id": "SF-N28",
        "name": "Jackson Playground",
        "latitude": 37.765057,
        "longitude": -122.398994,
        "total_trips": 38190,
        "member_trips": 32787,
        "casual_trips": 5403,
        "round_trips": 346
      },
      {
        "station_id": "SF-F28-1",
        "name": "Mechanics Monument Plaza",
        "latitude": 37.7913,
        "longitude": -122.39905,
        "total_trips": 37807,
        "member_trips": 31601,
        "casual_trips": 6206,
        "round_trips": 238
      },
      {
        "station_id": "SF-GGP-01",
        "name": "Pompei Circle at JFK Dr",
        "latitude": 37.7717,
        "longitude": -122.45828,
        "total_trips": 37748,
        "member_trips": 19303,
        "casual_trips": 18445,
        "round_trips": 2491
      },
      {
        "station_id": "SF-F23-2",
        "name": "Polk St at Bush St",
        "latitude": 37.78848,
        "longitude": -122.420334,
        "total_trips": 37458,
        "member_trips": 31064,
        "casual_trips": 6394,
        "round_trips": 329
      },
      {
        "station_id": "SF-N27",
        "name": "Rhode Island St at 17th St",
        "latitude": 37.764477,
        "longitude": -122.40257,
        "total_trips": 37352,
        "member_trips": 33163,
        "casual_trips": 4189,
        "round_trips": 218
      },
      {
        "station_id": "SF-G29-2",
        "name": "1st St at Folsom St",
        "latitude": 37.78729,
        "longitude": -122.39438,
        "total_trips": 37210,
        "member_trips": 32503,
        "casual_trips": 4707,
        "round_trips": 281
      },
      {
        "station_id": "SF-I21",
        "name": "Fulton St at Laguna St",
        "latitude": 37.77829,
        "longitude": -122.4265,
        "total_trips": 36674,
        "member_trips": 31883,
        "casual_trips": 4791,
        "round_trips": 285
      },
      {
        "station_id": "SF-K21",
        "name": "Koshland Park",
        "latitude": 37.77344,
        "longitude": -122.427155,
        "total_trips": 36577,
        "member_trips": 31562,
        "casual_trips": 5015,
        "round_trips": 329
      },
      {
        "station_id": "SF-D29",
        "name": "Pier 1/2 at The Embarcadero",
        "latitude": 37.79639,
        "longitude": -122.394585,
        "total_trips": 36549,
        "member_trips": 24015,
        "casual_trips": 12534,
        "round_trips": 670
      },
      {
        "station_id": "SF-F27",
        "name": "Post St at Kearny St",
        "latitude": 37.788975,
        "longitude": -122.40345,
        "total_trips": 36309,
        "member_trips": 30427,
        "casual_trips": 5882,
        "round_trips": 261
      },
      {
        "station_id": "SF-F26",
        "name": "Union Square",
        "latitude": 37.788486,
        "longitude": -122.40833,
        "total_trips": 36098,
        "member_trips": 27365,
        "casual_trips": 8733,
        "round_trips": 441
      },
      {
        "station_id": "SF-I25",
        "name": "Civic Center BART",
        "latitude": 37.781075,
        "longitude": -122.411736,
        "total_trips": 36080,
        "member_trips": 28670,
        "casual_trips": 7410,
        "round_trips": 398
      },
      {
        "station_id": "SF-J22-1",
        "name": "Octavia Blvd at Page St",
        "latitude": 37.774017,
        "longitude": -122.423805,
        "total_trips": 35991,
        "member_trips": 31188,
        "casual_trips": 4803,
        "round_trips": 303
      },
      {
        "station_id": "SF-G20",
        "name": "Post St at Webster St",
        "latitude": 37.78539,
        "longitude": -122.43177,
        "total_trips": 35256,
        "member_trips": 27501,
        "casual_trips": 7755,
        "round_trips": 330
      },
      {
        "station_id": "SF-B28-2",
        "name": "Battery St at Filbert St",
        "latitude": 37.802055,
        "longitude": -122.40172,
        "total_trips": 35117,
        "member_trips": 30100,
        "casual_trips": 5017,
        "round_trips": 218
      },
      {
        "station_id": "SF-M30-2",
        "name": "Terry Francois Blvd at Warriors Way",
        "latitude": 37.769096,
        "longitude": -122.38633,
        "total_trips": 35022,
        "member_trips": 26738,
        "casual_trips": 8284,
        "round_trips": 429
      },
      {
        "station_id": "SF-Q22-2",
        "name": "Valencia St at 24th St",
        "latitude": 37.752426,
        "longitude": -122.42063,
        "total_trips": 34480,
        "member_trips": 28563,
        "casual_trips": 5917,
        "round_trips": 213
      },
      {
        "station_id": "SF-L26",
        "name": "Division St at Potrero Ave",
        "latitude": 37.769264,
        "longitude": -122.40705,
        "total_trips": 34397,
        "member_trips": 31635,
        "casual_trips": 2762,
        "round_trips": 98
      },
      {
        "station_id": "SF-A27",
        "name": "The Embarcadero at Sansome St",
        "latitude": 37.80477,
        "longitude": -122.40324,
        "total_trips": 34258,
        "member_trips": 26892,
        "casual_trips": 7366,
        "round_trips": 293
      },
      {
        "station_id": "SF-K15-2",
        "name": "Fell St at Clayton St",
        "latitude": 37.77256,
        "longitude": -122.448906,
        "total_trips": 34076,
        "member_trips": 25170,
        "casual_trips": 8906,
        "round_trips": 634
      },
      {
        "station_id": "SF-J30",
        "name": "3rd St at King St",
        "latitude": 37.7779,
        "longitude": -122.39141,
        "total_trips": 33732,
        "member_trips": 26163,
        "casual_trips": 7569,
        "round_trips": 308
      },
      {
        "station_id": "SF-F30-1",
        "name": "The Embarcadero at Steuart St",
        "latitude": 37.7914,
        "longitude": -122.39104,
        "total_trips": 33729,
        "member_trips": 27568,
        "casual_trips": 6161,
        "round_trips": 226
      },
      {
        "station_id": "SF-M30",
        "name": "4th St at 16th St",
        "latitude": 37.767044,
        "longitude": -122.39083,
        "total_trips": 33636,
        "member_trips": 28035,
        "casual_trips": 5601,
        "round_trips": 200
      },
      {
        "station_id": "SF-K18",
        "name": "Broderick St at Oak St",
        "latitude": 37.773064,
        "longitude": -122.43908,
        "total_trips": 33625,
        "member_trips": 26427,
        "casual_trips": 7198,
        "round_trips": 350
      },
      {
        "station_id": "SF-L20",
        "name": "Church St at Duboce Ave",
        "latitude": 37.769817,
        "longitude": -122.429146,
        "total_trips": 33459,
        "member_trips": 27881,
        "casual_trips": 5578,
        "round_trips": 242
      },
      {
        "station_id": "SF-O30",
        "name": "Esprit Park",
        "latitude": 37.761635,
        "longitude": -122.39065,
        "total_trips": 33284,
        "member_trips": 28510,
        "casual_trips": 4774,
        "round_trips": 350
      },
      {
        "station_id": "SF-GGP-05",
        "name": "JFK Dr at Great Highway",
        "latitude": 37.770477,
        "longitude": -122.5106,
        "total_trips": 32965,
        "member_trips": 12235,
        "casual_trips": 20730,
        "round_trips": 1577
      },
      {
        "station_id": "SF-C22",
        "name": "Green St at Van Ness Ave",
        "latitude": 37.797626,
        "longitude": -122.42354,
        "total_trips": 32736,
        "member_trips": 26187,
        "casual_trips": 6549,
        "round_trips": 343
      },
      {
        "station_id": "SF-A25",
        "name": "North Point St at Powell St",
        "latitude": 37.80693,
        "longitude": -122.41154,
        "total_trips": 32407,
        "member_trips": 19217,
        "casual_trips": 13190,
        "round_trips": 679
      },
      {
        "station_id": "SF-N20-1",
        "name": "16th St at Prosper St",
        "latitude": 37.764286,
        "longitude": -122.4318,
        "total_trips": 32384,
        "member_trips": 28476,
        "casual_trips": 3908,
        "round_trips": 246
      },
      {
        "station_id": "SF-E29-3",
        "name": "Mission St at Beale St",
        "latitude": 37.791252,
        "longitude": -122.39563,
        "total_trips": 32096,
        "member_trips": 27674,
        "casual_trips": 4422,
        "round_trips": 172
      },
      {
        "station_id": "SF-N24-2",
        "name": "Harrison St at 17th St",
        "latitude": 37.763847,
        "longitude": -122.413,
        "total_trips": 32038,
        "member_trips": 28587,
        "casual_trips": 3451,
        "round_trips": 148
      },
      {
        "station_id": "SF-M22-2",
        "name": "15th St at Valencia St",
        "latitude": 37.7666,
        "longitude": -122.42186,
        "total_trips": 32013,
        "member_trips": 26807,
        "casual_trips": 5206,
        "round_trips": 190
      },
      {
        "station_id": "SF-O25-1",
        "name": "19th St at Florida St",
        "latitude": 37.76045,
        "longitude": -122.410805,
        "total_trips": 31730,
        "member_trips": 27721,
        "casual_trips": 4009,
        "round_trips": 340
      },
      {
        "station_id": "SF-F30-3",
        "name": "Folsom St at Main St",
        "latitude": 37.789074,
        "longitude": -122.39218,
        "total_trips": 31490,
        "member_trips": 27198,
        "casual_trips": 4292,
        "round_trips": 210
      },
      {
        "station_id": "SF-O23",
        "name": "19th St at Mission St",
        "latitude": 37.760277,
        "longitude": -122.419075,
        "total_trips": 31440,
        "member_trips": 26553,
        "casual_trips": 4887,
        "round_trips": 278
      },
      {
        "station_id": "SF-P22",
        "name": "21st St at Valencia St",
        "latitude": 37.75688,
        "longitude": -122.420906,
        "total_trips": 31366,
        "member_trips": 25431,
        "casual_trips": 5935,
        "round_trips": 211
      },
      {
        "station_id": "SF-J25",
        "name": "Howard St at 8th St",
        "latitude": 37.776512,
        "longitude": -122.41131,
        "total_trips": 31359,
        "member_trips": 26941,
        "casual_trips": 4418,
        "round_trips": 418
      },
      {
        "station_id": "SF-C20-2",
        "name": "Webster St at Union St",
        "latitude": 37.79744,
        "longitude": -122.43399,
        "total_trips": 31227,
        "member_trips": 24704,
        "casual_trips": 6523,
        "round_trips": 387
      },
      {
        "station_id": "SF-Q23-3",
        "name": "24th St BART",
        "latitude": 37.75199,
        "longitude": -122.41898,
        "total_trips": 31214,
        "member_trips": 25955,
        "casual_trips": 5259,
        "round_trips": 178
      },
      {
        "station_id": "SF-K26",
        "name": "8th St at Brannan St",
        "latitude": 37.77143,
        "longitude": -122.405785,
        "total_trips": 31042,
        "member_trips": 27390,
        "casual_trips": 3652,
        "round_trips": 142
      },
      {
        "station_id": "SF-Q22-1",
        "name": "22nd St at Valencia St",
        "latitude": 37.75528,
        "longitude": -122.421135,
        "total_trips": 30949,
        "member_trips": 25495,
        "casual_trips": 5454,
        "round_trips": 198
      },
      {
        "station_id": "SF-J17",
        "name": "McAllister St at Baker St",
        "latitude": 37.777386,
        "longitude": -122.441956,
        "total_trips": 30920,
        "member_trips": 24853,
        "casual_trips": 6067,
        "round_trips": 339
      },
      {
        "station_id": "SF-J19",
        "name": "Alamo Square",
        "latitude": 37.777546,
        "longitude": -122.43327,
        "total_trips": 30739,
        "member_trips": 23938,
        "casual_trips": 6801,
        "round_trips": 367
      },
      {
        "station_id": "SF-J29-4",
        "name": "San Francisco Caltrain Station - 4th St",
        "latitude": 37.776455,
        "longitude": -122.3944,
        "total_trips": 30682,
        "member_trips": 25291,
        "casual_trips": 5391,
        "round_trips": 235
      },
      {
        "station_id": "SF-C26-1",
        "name": "Broadway at Kearny St",
        "latitude": 37.79801,
        "longitude": -122.40595,
        "total_trips": 30406,
        "member_trips": 23939,
        "casual_trips": 6467,
        "round_trips": 310
      },
      {
        "station_id": "SF-L22",
        "name": "Valencia St at Clinton Park",
        "latitude": 37.76901,
        "longitude": -122.42225,
        "total_trips": 30113,
        "member_trips": 25449,
        "casual_trips": 4664,
        "round_trips": 185
      },
      {
        "station_id": "SF-K17",
        "name": "Lyon St at Fell St",
        "latitude": 37.773563,
        "longitude": -122.44257,
        "total_trips": 30079,
        "member_trips": 23027,
        "casual_trips": 7052,
        "round_trips": 524
      },
      {
        "station_id": "SF-E28",
        "name": "Clay St at Battery St",
        "latitude": 37.795002,
        "longitude": -122.39997,
        "total_trips": 30022,
        "member_trips": 24975,
        "casual_trips": 5047,
        "round_trips": 283
      },
      {
        "station_id": "SF-F23-3",
        "name": "Larkin St at California St",
        "latitude": 37.79059,
        "longitude": -122.41893,
        "total_trips": 30000,
        "member_trips": 24655,
        "casual_trips": 5345,
        "round_trips": 328
      },
      {
        "station_id": "SF-A25-2",
        "name": "Mason St at Bay St",
        "latitude": 37.805454,
        "longitude": -122.413666,
        "total_trips": 29974,
        "member_trips": 22261,
        "casual_trips": 7713,
        "round_trips": 398
      },
      {
        "station_id": "SF-F28-2",
        "name": "Montgomery St BART",
        "latitude": 37.78962,
        "longitude": -122.40081,
        "total_trips": 29729,
        "member_trips": 25211,
        "casual_trips": 4518,
        "round_trips": 200
      },
      {
        "station_id": "SF-G29-3",
        "name": "Tehama St at 1st St",
        "latitude": 37.788033,
        "longitude": -122.39562,
        "total_trips": 29463,
        "member_trips": 24958,
        "casual_trips": 4505,
        "round_trips": 203
      },
      {
        "station_id": "SF-L30-1",
        "name": "4th St at Mission Bay Blvd S",
        "latitude": 37.770313,
        "longitude": -122.391235,
        "total_trips": 29138,
        "member_trips": 25053,
        "casual_trips": 4085,
        "round_trips": 132
      },
      {
        "station_id": "SF-G19",
        "name": "Raymond Kimbell Playground",
        "latitude": 37.783813,
        "longitude": -122.434555,
        "total_trips": 28471,
        "member_trips": 24361,
        "casual_trips": 4110,
        "round_trips": 182
      },
      {
        "station_id": "SF-K27-2",
        "name": "Brannan St at 7th St",
        "latitude": 37.772507,
        "longitude": -122.40387,
        "total_trips": 28428,
        "member_trips": 24582,
        "casual_trips": 3846,
        "round_trips": 337
      },
      {
        "station_id": "SF-K22-1",
        "name": "Market St at Franklin St",
        "latitude": 37.773792,
        "longitude": -122.42124,
        "total_trips": 28410,
        "member_trips": 24477,
        "casual_trips": 3933,
        "round_trips": 185
      },
      {
        "station_id": "SF-D28",
        "name": "Davis St at Jackson St",
        "latitude": 37.79728,
        "longitude": -122.39844,
        "total_trips": 27939,
        "member_trips": 24050,
        "casual_trips": 3889,
        "round_trips": 306
      },
      {
        "station_id": "SF-N30",
        "name": "Hospital St at Mariposa St",
        "latitude": 37.764782,
        "longitude": -122.3909,
        "total_trips": 27827,
        "member_trips": 23852,
        "casual_trips": 3975,
        "round_trips": 216
      },
      {
        "station_id": "SF-C18",
        "name": "Divisadero St at Lombard St",
        "latitude": 37.799175,
        "longitude": -122.442726,
        "total_trips": 27784,
        "member_trips": 19550,
        "casual_trips": 8234,
        "round_trips": 478
      },
      {
        "station_id": "SF-O24",
        "name": "Folsom St at 19th St",
        "latitude": 37.760654,
        "longitude": -122.41474,
        "total_trips": 27635,
        "member_trips": 24050,
        "casual_trips": 3585,
        "round_trips": 107
      },
      {
        "station_id": "SF-F23",
        "name": "Polk St at Post St",
        "latitude": 37.786945,
        "longitude": -122.42005,
        "total_trips": 27334,
        "member_trips": 22409,
        "casual_trips": 4925,
        "round_trips": 205
      },
      {
        "station_id": "SF-N29",
        "name": "Mississippi St at 17th St",
        "latitude": 37.764793,
        "longitude": -122.39476,
        "total_trips": 27284,
        "member_trips": 23306,
        "casual_trips": 3978,
        "round_trips": 160
      },
      {
        "station_id": "SF-J26",
        "name": "Victoria Manalo Draves Park",
        "latitude": 37.777695,
        "longitude": -122.4063,
        "total_trips": 27127,
        "member_trips": 23129,
        "casual_trips": 3998,
        "round_trips": 223
      },
      {
        "station_id": "SF-P24",
        "name": "Harrison St at 20th St",
        "latitude": 37.75886,
        "longitude": -122.412544,
        "total_trips": 26986,
        "member_trips": 23022,
        "casual_trips": 3964,
        "round_trips": 140
      },
      {
        "station_id": "SF-O19",
        "name": "18th St at Noe St",
        "latitude": 37.761047,
        "longitude": -122.43264,
        "total_trips": 26756,
        "member_trips": 21790,
        "casual_trips": 4966,
        "round_trips": 193
      },
      {
        "station_id": "SF-R24",
        "name": "Garfield Square",
        "latitude": 37.750946,
        "longitude": -122.41209,
        "total_trips": 26506,
        "member_trips": 22258,
        "casual_trips": 4248,
        "round_trips": 251
      },
      {
        "station_id": "SF-L25",
        "name": "11th St at Bryant St",
        "latitude": 37.77003,
        "longitude": -122.41173,
        "total_trips": 26420,
        "member_trips": 22971,
        "casual_trips": 3449,
        "round_trips": 118
      },
      {
        "station_id": "SF-M15",
        "name": "Carl St at Cole St",
        "latitude": 37.76594,
        "longitude": -122.44923,
        "total_trips": 26363,
        "member_trips": 19923,
        "casual_trips": 6440,
        "round_trips": 362
      },
      {
        "station_id": "SF-O25-2",
        "name": "20th St at Bryant St",
        "latitude": 37.759163,
        "longitude": -122.41005,
        "total_trips": 26274,
        "member_trips": 22359,
        "casual_trips": 3915,
        "round_trips": 196
      },
      {
        "station_id": "SF-B22",
        "name": "Chestnut St at Van Ness Ave",
        "latitude": 37.8023,
        "longitude": -122.424416,
        "total_trips": 26236,
        "member_trips": 20117,
        "casual_trips": 6119,
        "round_trips": 331
      },
      {
        "station_id": "SF-D27",
        "name": "Washington St at Kearny St",
        "latitude": 37.795403,
        "longitude": -122.404686,
        "total_trips": 25832,
        "member_trips": 20174,
        "casual_trips": 5658,
        "round_trips": 446
      },
      {
        "station_id": "SF-F26-2",
        "name": "Grant Ave at Sutter St",
        "latitude": 37.78971,
        "longitude": -122.40549,
        "total_trips": 25748,
        "member_trips": 20520,
        "casual_trips": 5228,
        "round_trips": 304
      },
      {
        "station_id": "SF-B19",
        "name": "Bay St at Fillmore St",
        "latitude": 37.80266,
        "longitude": -122.436066,
        "total_trips": 25706,
        "member_trips": 19383,
        "casual_trips": 6323,
        "round_trips": 388
      },
      {
        "station_id": "SF-G28-1",
        "name": "Howard St at 2nd St",
        "latitude": 37.786465,
        "longitude": -122.39872,
        "total_trips": 25517,
        "member_trips": 19097,
        "casual_trips": 6420,
        "round_trips": 155
      },
      {
        "station_id": "SF-N21",
        "name": "17th St at Dolores St",
        "latitude": 37.76309,
        "longitude": -122.4267,
        "total_trips": 25338,
        "member_trips": 21459,
        "casual_trips": 3879,
        "round_trips": 195
      },
      {
        "station_id": "SF-I28",
        "name": "4th St at Harrison St",
        "latitude": 37.781544,
        "longitude": -122.40041,
        "total_trips": 25145,
        "member_trips": 22164,
        "casual_trips": 2981,
        "round_trips": 179
      },
      {
        "station_id": "SF-F30-2",
        "name": "Spear St at Folsom St",
        "latitude": 37.78963,
        "longitude": -122.390335,
        "total_trips": 25079,
        "member_trips": 21558,
        "casual_trips": 3521,
        "round_trips": 220
      },
      {
        "station_id": "SF-N22-1B",
        "name": "16th St Mission BART North",
        "latitude": 37.76484,
        "longitude": -122.42014,
        "total_trips": 25056,
        "member_trips": 21194,
        "casual_trips": 3862,
        "round_trips": 163
      },
      {
        "station_id": "SF-A26",
        "name": "North Point St at Grant Ave",
        "latitude": 37.80717,
        "longitude": -122.40928,
        "total_trips": 24908,
        "member_trips": 14214,
        "casual_trips": 10694,
        "round_trips": 287
      },
      {
        "station_id": "SF-J28-2",
        "name": "Brannan St at 4th St",
        "latitude": 37.777935,
        "longitude": -122.39697,
        "total_trips": 24835,
        "member_trips": 21645,
        "casual_trips": 3190,
        "round_trips": 148
      },
      {
        "station_id": "SF-Q30",
        "name": "23rd St at Tennessee St",
        "latitude": 37.755367,
        "longitude": -122.388794,
        "total_trips": 24588,
        "member_trips": 21178,
        "casual_trips": 3410,
        "round_trips": 293
      },
      {
        "station_id": "SF-G30-1",
        "name": "Beale St at Harrison St",
        "latitude": 37.787964,
        "longitude": -122.39181,
        "total_trips": 24399,
        "member_trips": 21522,
        "casual_trips": 2877,
        "round_trips": 160
      },
      {
        "station_id": "SF-M21",
        "name": "Dolores St at 15th St",
        "latitude": 37.7661,
        "longitude": -122.42666,
        "total_trips": 24388,
        "member_trips": 21100,
        "casual_trips": 3288,
        "round_trips": 321
      },
      {
        "station_id": "SF-L27",
        "name": "Townsend St at 7th St",
        "latitude": 37.771057,
        "longitude": -122.40272,
        "total_trips": 24380,
        "member_trips": 20898,
        "casual_trips": 3482,
        "round_trips": 143
      },
      {
        "station_id": "SF-M13",
        "name": "Frederick St at Arguello Blvd",
        "latitude": 37.76578,
        "longitude": -122.457634,
        "total_trips": 24265,
        "member_trips": 19872,
        "casual_trips": 4393,
        "round_trips": 473
      },
      {
        "station_id": "SF-E27",
        "name": "Commercial St at Montgomery St",
        "latitude": 37.794247,
        "longitude": -122.402855,
        "total_trips": 24211,
        "member_trips": 20117,
        "casual_trips": 4094,
        "round_trips": 252
      },
      {
        "station_id": "SF-N25",
        "name": "Franklin Square",
        "latitude": 37.76454,
        "longitude": -122.41035,
        "total_trips": 24193,
        "member_trips": 20912,
        "casual_trips": 3281,
        "round_trips": 131
      },
      {
        "station_id": "SF-I29-2",
        "name": "South Park St at 3rd St",
        "latitude": 37.78076,
        "longitude": -122.39499,
        "total_trips": 23731,
        "member_trips": 20565,
        "casual_trips": 3166,
        "round_trips": 222
      },
      {
        "station_id": "SF-N23",
        "name": "In Chan Kaajal Park",
        "latitude": 37.763733,
        "longitude": -122.41553,
        "total_trips": 23570,
        "member_trips": 20418,
        "casual_trips": 3152,
        "round_trips": 161
      },
      {
        "station_id": "SF-I23-2",
        "name": "San Francisco City Hall",
        "latitude": 37.77883,
        "longitude": -122.41816,
        "total_trips": 23384,
        "member_trips": 19275,
        "casual_trips": 4109,
        "round_trips": 192
      },
      {
        "station_id": "SF-I30-3",
        "name": "South Park St at 2nd St",
        "latitude": 37.782356,
        "longitude": -122.39313,
        "total_trips": 23331,
        "member_trips": 19862,
        "casual_trips": 3469,
        "round_trips": 165
      },
      {
        "station_id": "SF-K15-",
        "name": "Fell St at Stanyan St",
        "latitude": 37.77191,
        "longitude": -122.45378,
        "total_trips": 23300,
        "member_trips": 14298,
        "casual_trips": 9002,
        "round_trips": 628
      },
      {
        "station_id": "SF-A11",
        "name": "West Crissy Field",
        "latitude": 37.803825,
        "longitude": -122.46771,
        "total_trips": 23235,
        "member_trips": 10287,
        "casual_trips": 12948,
        "round_trips": 1722
      },
      {
        "station_id": "SF-C21",
        "name": "Allyne Park",
        "latitude": 37.79725,
        "longitude": -122.42746,
        "total_trips": 23170,
        "member_trips": 19067,
        "casual_trips": 4103,
        "round_trips": 277
      },
      {
        "station_id": "SF-I23-1",
        "name": "Golden Gate Ave at Polk St",
        "latitude": 37.78136,
        "longitude": -122.41853,
        "total_trips": 23136,
        "member_trips": 19360,
        "casual_trips": 3776,
        "round_trips": 166
      },
      {
        "station_id": "SF-L19",
        "name": "Duboce Park",
        "latitude": 37.76905,
        "longitude": -122.43362,
        "total_trips": 22862,
        "member_trips": 18660,
        "casual_trips": 4202,
        "round_trips": 256
      },
      {
        "station_id": "SF-K17-2",
        "name": "Haight St at Lyon St",
        "latitude": 37.77052,
        "longitude": -122.44233,
        "total_trips": 22712,
        "member_trips": 18011,
        "casual_trips": 4701,
        "round_trips": 299
      },
      {
        "station_id": "SF-K22-2",
        "name": "McCoppin St at Valencia St",
        "latitude": 37.77168,
        "longitude": -122.4223,
        "total_trips": 22350,
        "member_trips": 19015,
        "casual_trips": 3335,
        "round_trips": 185
      },
      {
        "station_id": "SF-L29",
        "name": "Mission Bay Kids Park",
        "latitude": 37.7723,
        "longitude": -122.39303,
        "total_trips": 21725,
        "member_trips": 18827,
        "casual_trips": 2898,
        "round_trips": 257
      },
      {
        "station_id": "SF-E20",
        "name": "Webster St at Clay St",
        "latitude": 37.790802,
        "longitude": -122.43259,
        "total_trips": 21696,
        "member_trips": 17925,
        "casual_trips": 3771,
        "round_trips": 235
      },
      {
        "station_id": "SF-H27-1",
        "name": "Yerba Buena Center for the Arts",
        "latitude": 37.784874,
        "longitude": -122.40088,
        "total_trips": 21679,
        "member_trips": 17369,
        "casual_trips": 4310,
        "round_trips": 213
      },
      {
        "station_id": "SF-F19",
        "name": "Steiner St at California St",
        "latitude": 37.78857,
        "longitude": -122.4354,
        "total_trips": 21481,
        "member_trips": 17754,
        "casual_trips": 3727,
        "round_trips": 200
      },
      {
        "station_id": "SF-G25",
        "name": "Jones St at Post St",
        "latitude": 37.787327,
        "longitude": -122.41328,
        "total_trips": 21289,
        "member_trips": 17088,
        "casual_trips": 4201,
        "round_trips": 312
      },
      {
        "station_id": "SF-B25",
        "name": "Lombard St at Columbus Ave",
        "latitude": 37.80277,
        "longitude": -122.41328,
        "total_trips": 21246,
        "member_trips": 16641,
        "casual_trips": 4605,
        "round_trips": 342
      },
      {
        "station_id": "SF-D24",
        "name": "Leavenworth St at Broadway",
        "latitude": 37.79647,
        "longitude": -122.416855,
        "total_trips": 21151,
        "member_trips": 17359,
        "casual_trips": 3792,
        "round_trips": 195
      },
      {
        "station_id": "SF-L31-1",
        "name": "Terry Francois Blvd at Mission Bay Blvd N",
        "latitude": 37.771767,
        "longitude": -122.38669,
        "total_trips": 21112,
        "member_trips": 16922,
        "casual_trips": 4190,
        "round_trips": 260
      },
      {
        "station_id": "OK-F4",
        "name": "MacArthur BART",
        "latitude": 37.828594,
        "longitude": -122.26635,
        "total_trips": 20943,
        "member_trips": 15644,
        "casual_trips": 5299,
        "round_trips": 138
      },
      {
        "station_id": "SF-J20",
        "name": "Webster St at Grove St",
        "latitude": 37.777054,
        "longitude": -122.42956,
        "total_trips": 20846,
        "member_trips": 17289,
        "casual_trips": 3557,
        "round_trips": 181
      },
      {
        "station_id": "SF-C20",
        "name": "Greenwich St at Webster St",
        "latitude": 37.79921,
        "longitude": -122.43412,
        "total_trips": 20688,
        "member_trips": 15276,
        "casual_trips": 5412,
        "round_trips": 317
      },
      {
        "station_id": "SF-H30-2",
        "name": "Delancey St at Brannan St",
        "latitude": 37.783844,
        "longitude": -122.39,
        "total_trips": 20599,
        "member_trips": 17801,
        "casual_trips": 2798,
        "round_trips": 183
      },
      {
        "station_id": "SF-O18",
        "name": "Eureka Valley Recreation Center",
        "latitude": 37.759212,
        "longitude": -122.4368,
        "total_trips": 20495,
        "member_trips": 16767,
        "casual_trips": 3728,
        "round_trips": 242
      },
      {
        "station_id": "SF-G24",
        "name": "Hyde St at Post St",
        "latitude": 37.787094,
        "longitude": -122.4167,
        "total_trips": 20197,
        "member_trips": 16274,
        "casual_trips": 3923,
        "round_trips": 276
      },
      {
        "station_id": "SF-Q24",
        "name": "Parque Ninos Unidos",
        "latitude": 37.754337,
        "longitude": -122.413246,
        "total_trips": 20115,
        "member_trips": 16841,
        "casual_trips": 3274,
        "round_trips": 149
      },
      {
        "station_id": "SF-J16",
        "name": "Grove St at Masonic Ave",
        "latitude": 37.774834,
        "longitude": -122.44675,
        "total_trips": 19601,
        "member_trips": 15436,
        "casual_trips": 4165,
        "round_trips": 275
      },
      {
        "station_id": "SF-A19",
        "name": "Fillmore St at Jefferson St",
        "latitude": 37.805374,
        "longitude": -122.43726,
        "total_trips": 19504,
        "member_trips": 12945,
        "casual_trips": 6559,
        "round_trips": 625
      },
      {
        "station_id": "SF-K23",
        "name": "Otis St at Brady St",
        "latitude": 37.77222,
        "longitude": -122.419975,
        "total_trips": 19321,
        "member_trips": 17220,
        "casual_trips": 2101,
        "round_trips": 168
      },
      {
        "station_id": "SF-B21",
        "name": "Greenwich St at Franklin St",
        "latitude": 37.800285,
        "longitude": -122.42579,
        "total_trips": 19223,
        "member_trips": 15324,
        "casual_trips": 3899,
        "round_trips": 275
      },
      {
        "station_id": "SF-C16-2",
        "name": "Lyon St at Lombard St",
        "latitude": 37.7982,
        "longitude": -122.44742,
        "total_trips": 19222,
        "member_trips": 12520,
        "casual_trips": 6702,
        "round_trips": 550
      },
      {
        "station_id": "BK-E9-1",
        "name": "Bancroft Way at Telegraph Ave",
        "latitude": 37.86891,
        "longitude": -122.25879,
        "total_trips": 19154,
        "member_trips": 15134,
        "casual_trips": 4020,
        "round_trips": 471
      },
      {
        "station_id": "SF-M1",
        "name": "La Playa St at Lincoln Way",
        "latitude": 37.763874,
        "longitude": -122.50953,
        "total_trips": 19119,
        "member_trips": 7939,
        "casual_trips": 11180,
        "round_trips": 1065
      },
      {
        "station_id": "BK-D7-1",
        "name": "Downtown Berkeley BART",
        "latitude": 37.87014,
        "longitude": -122.268425,
        "total_trips": 19049,
        "member_trips": 14795,
        "casual_trips": 4254,
        "round_trips": 237
      },
      {
        "station_id": "SF-K24",
        "name": "11th St at Natoma St",
        "latitude": 37.773506,
        "longitude": -122.41604,
        "total_trips": 19025,
        "member_trips": 16000,
        "casual_trips": 3025,
        "round_trips": 125
      },
      {
        "station_id": "SF-G12",
        "name": "7th Ave at Clement St",
        "latitude": 37.78244,
        "longitude": -122.46538,
        "total_trips": 18970,
        "member_trips": 13703,
        "casual_trips": 5267,
        "round_trips": 265
      },
      {
        "station_id": "SF-E28-2",
        "name": "Front St at California St",
        "latitude": 37.793095,
        "longitude": -122.398834,
        "total_trips": 18856,
        "member_trips": 16168,
        "casual_trips": 2688,
        "round_trips": 118
      },
      {
        "station_id": "SF-A15",
        "name": "Mason St at Halleck St",
        "latitude": 37.803967,
        "longitude": -122.45508,
        "total_trips": 18588,
        "member_trips": 7433,
        "casual_trips": 11155,
        "round_trips": 1039
      },
      {
        "station_id": "SF-M11",
        "name": "10th Ave at Irving St",
        "latitude": 37.764225,
        "longitude": -122.46738,
        "total_trips": 18581,
        "member_trips": 12995,
        "casual_trips": 5586,
        "round_trips": 334
      },
      {
        "station_id": "BK-D10",
        "name": "Bancroft Way at College Ave",
        "latitude": 37.869396,
        "longitude": -122.25433,
        "total_trips": 18504,
        "member_trips": 14860,
        "casual_trips": 3644,
        "round_trips": 320
      },
      {
        "station_id": "SF-I19",
        "name": "Scott St at Golden Gate Ave",
        "latitude": 37.779266,
        "longitude": -122.43695,
        "total_trips": 18422,
        "member_trips": 15375,
        "casual_trips": 3047,
        "round_trips": 188
      },
      {
        "station_id": "SF-G13",
        "name": "Arguello Blvd at Geary Blvd",
        "latitude": 37.781467,
        "longitude": -122.45881,
        "total_trips": 18410,
        "member_trips": 13449,
        "casual_trips": 4961,
        "round_trips": 242
      },
      {
        "station_id": "SF I29-1",
        "name": "Bryant St at 2nd St",
        "latitude": 37.783535,
        "longitude": -122.393456,
        "total_trips": 18288,
        "member_trips": 14970,
        "casual_trips": 3318,
        "round_trips": 108
      },
      {
        "station_id": "SF-S22-1",
        "name": "Valencia St at Duncan St",
        "latitude": 37.74691,
        "longitude": -122.4201,
        "total_trips": 18285,
        "member_trips": 14975,
        "casual_trips": 3310,
        "round_trips": 122
      },
      {
        "station_id": "SF-B14",
        "name": "Lincoln Blvd at Graham St",
        "latitude": 37.80175,
        "longitude": -122.45636,
        "total_trips": 18001,
        "member_trips": 9401,
        "casual_trips": 8600,
        "round_trips": 1124
      },
      {
        "station_id": "SF-G26",
        "name": "Cyril Magnin St at Ellis St",
        "latitude": 37.785877,
        "longitude": -122.40892,
        "total_trips": 17975,
        "member_trips": 13223,
        "casual_trips": 4752,
        "round_trips": 248
      },
      {
        "station_id": "SF-T22",
        "name": "29th St at Tiffany Ave",
        "latitude": 37.744026,
        "longitude": -122.42236,
        "total_trips": 17924,
        "member_trips": 15339,
        "casual_trips": 2585,
        "round_trips": 116
      },
      {
        "station_id": "SF-ZZ11",
        "name": "Lincoln Blvd at Hoffman St",
        "latitude": 37.80609,
        "longitude": -122.470314,
        "total_trips": 17910,
        "member_trips": 3843,
        "casual_trips": 14067,
        "round_trips": 2505
      },
      {
        "station_id": "SF-M22-1",
        "name": "14th St at Mission St",
        "latitude": 37.768227,
        "longitude": -122.42036,
        "total_trips": 17886,
        "member_trips": 15006,
        "casual_trips": 2880,
        "round_trips": 134
      },
      {
        "station_id": "SF-I30-2",
        "name": "Brannan St at Colin P Kelly Jr St",
        "latitude": 37.782257,
        "longitude": -122.391464,
        "total_trips": 17886,
        "member_trips": 14984,
        "casual_trips": 2902,
        "round_trips": 107
      },
      {
        "station_id": "SF-M26-2",
        "name": "Alameda St at Henry Adams St",
        "latitude": 37.768543,
        "longitude": -122.404236,
        "total_trips": 17864,
        "member_trips": 15771,
        "casual_trips": 2093,
        "round_trips": 224
      },
      {
        "station_id": "SF-E22",
        "name": "Washington St at Van Ness Ave",
        "latitude": 37.79298,
        "longitude": -122.4233,
        "total_trips": 17853,
        "member_trips": 14856,
        "casual_trips": 2997,
        "round_trips": 158
      },
      {
        "station_id": "SF-S24",
        "name": "Precita Park",
        "latitude": 37.74707,
        "longitude": -122.41066,
        "total_trips": 17793,
        "member_trips": 14510,
        "casual_trips": 3283,
        "round_trips": 155
      },
      {
        "station_id": "SF-P21",
        "name": "20th St at Dolores St",
        "latitude": 37.75824,
        "longitude": -122.426094,
        "total_trips": 17773,
        "member_trips": 14603,
        "casual_trips": 3170,
        "round_trips": 215
      },
      {
        "station_id": "SF-E29-4",
        "name": "Drumm St at Market St",
        "latitude": 37.79353,
        "longitude": -122.39647,
        "total_trips": 17616,
        "member_trips": 13668,
        "casual_trips": 3948,
        "round_trips": 166
      },
      {
        "station_id": "SF-H28-2",
        "name": "Mabini St at Folsom St",
        "latitude": 37.782413,
        "longitude": -122.4002,
        "total_trips": 17342,
        "member_trips": 15086,
        "casual_trips": 2256,
        "round_trips": 94
      },
      {
        "station_id": "SF-K28",
        "name": "Townsend St at 5th St",
        "latitude": 37.775234,
        "longitude": -122.39744,
        "total_trips": 17330,
        "member_trips": 14813,
        "casual_trips": 2517,
        "round_trips": 155
      },
      {
        "station_id": "SF-K24-3",
        "name": "Howard St at Grace St",
        "latitude": 37.77448,
        "longitude": -122.41392,
        "total_trips": 17326,
        "member_trips": 14958,
        "casual_trips": 2368,
        "round_trips": 183
      },
      {
        "station_id": "SJ-M10-2",
        "name": "San Fernando St at 4th St",
        "latitude": 37.335884,
        "longitude": -121.88566,
        "total_trips": 17233,
        "member_trips": 15921,
        "casual_trips": 1312,
        "round_trips": 660
      },
      {
        "station_id": "SF-B20",
        "name": "Buchanan St at Lombard St",
        "latitude": 37.800495,
        "longitude": -122.43276,
        "total_trips": 16764,
        "member_trips": 12824,
        "casual_trips": 3940,
        "round_trips": 219
      },
      {
        "station_id": "SF-N20-2",
        "name": "Sanchez St at 17th St",
        "latitude": 37.76324,
        "longitude": -122.43067,
        "total_trips": 16605,
        "member_trips": 14483,
        "casual_trips": 2122,
        "round_trips": 147
      },
      {
        "station_id": "SF-G18",
        "name": "Post St at Divisadero St",
        "latitude": 37.78442,
        "longitude": -122.43936,
        "total_trips": 16587,
        "member_trips": 14015,
        "casual_trips": 2572,
        "round_trips": 95
      },
      {
        "station_id": "SF-GGP-02",
        "name": "MLK Dr at 7th Ave",
        "latitude": 37.766613,
        "longitude": -122.46421,
        "total_trips": 16431,
        "member_trips": 8704,
        "casual_trips": 7727,
        "round_trips": 913
      },
      {
        "station_id": "SF-J12",
        "name": "7th Ave at Cabrillo St",
        "latitude": 37.77512,
        "longitude": -122.465,
        "total_trips": 16383,
        "member_trips": 11756,
        "casual_trips": 4627,
        "round_trips": 665
      },
      {
        "station_id": "SF-N26",
        "name": "Potrero Ave at Mariposa St",
        "latitude": 37.763477,
        "longitude": -122.40739,
        "total_trips": 16236,
        "member_trips": 14574,
        "casual_trips": 1662,
        "round_trips": 108
      },
      {
        "station_id": "SF-D27-2",
        "name": "Montgomery St at Pacific Ave",
        "latitude": 37.797207,
        "longitude": -122.40366,
        "total_trips": 16126,
        "member_trips": 13409,
        "casual_trips": 2717,
        "round_trips": 121
      },
      {
        "station_id": "SF-P26",
        "name": "22nd St at Potrero Ave",
        "latitude": 37.756824,
        "longitude": -122.40593,
        "total_trips": 15862,
        "member_trips": 14082,
        "casual_trips": 1780,
        "round_trips": 149
      },
      {
        "station_id": "SF-GGP-04",
        "name": "36th Ave at Spreckels Lake Dr",
        "latitude": 37.771408,
        "longitude": -122.49577,
        "total_trips": 15782,
        "member_trips": 6553,
        "casual_trips": 9229,
        "round_trips": 913
      },
      {
        "station_id": "SF-L28",
        "name": "Berry St at King St",
        "latitude": 37.771763,
        "longitude": -122.39844,
        "total_trips": 15731,
        "member_trips": 13900,
        "casual_trips": 1831,
        "round_trips": 156
      },
      {
        "station_id": "SF-I22",
        "name": "Golden Gate Ave at Franklin St",
        "latitude": 37.780792,
        "longitude": -122.42197,
        "total_trips": 15674,
        "member_trips": 13168,
        "casual_trips": 2506,
        "round_trips": 126
      },
      {
        "station_id": "SF-R19",
        "name": "Jersey St at Castro St",
        "latitude": 37.75056,
        "longitude": -122.43377,
        "total_trips": 15405,
        "member_trips": 12347,
        "casual_trips": 3058,
        "round_trips": 155
      },
      {
        "station_id": "SF-F17-1",
        "name": "Clay St at Lyon St",
        "latitude": 37.78928,
        "longitude": -122.44507,
        "total_trips": 15240,
        "member_trips": 12050,
        "casual_trips": 3190,
        "round_trips": 235
      },
      {
        "station_id": "SF-Q21-2",
        "name": "24th St at Chattanooga St",
        "latitude": 37.7518,
        "longitude": -122.4265,
        "total_trips": 15169,
        "member_trips": 12923,
        "casual_trips": 2246,
        "round_trips": 117
      },
      {
        "station_id": "SF-C28-2",
        "name": "Broadway at Battery St",
        "latitude": 37.798573,
        "longitude": -122.40087,
        "total_trips": 15065,
        "member_trips": 12757,
        "casual_trips": 2308,
        "round_trips": 95
      },
      {
        "station_id": "SJ-M11-2",
        "name": "San Fernando St at 7th St",
        "latitude": 37.337124,
        "longitude": -121.88322,
        "total_trips": 15039,
        "member_trips": 14201,
        "casual_trips": 838,
        "round_trips": 339
      },
      {
        "station_id": "SF-G30-2",
        "name": "The Embarcadero at Bryant St",
        "latitude": 37.78733,
        "longitude": -122.38811,
        "total_trips": 14949,
        "member_trips": 11076,
        "casual_trips": 3873,
        "round_trips": 147
      },
      {
        "station_id": "SF-H16",
        "name": "O'Farrell St at Masonic Ave",
        "latitude": 37.78113,
        "longitude": -122.44737,
        "total_trips": 14941,
        "member_trips": 12196,
        "casual_trips": 2745,
        "round_trips": 110
      },
      {
        "station_id": "OK-N1",
        "name": "West Oakland BART",
        "latitude": 37.80519,
        "longitude": -122.29462,
        "total_trips": 14785,
        "member_trips": 11358,
        "casual_trips": 3427,
        "round_trips": 95
      },
      {
        "station_id": "SF-Q26",
        "name": "23rd St at San Bruno Ave",
        "latitude": 37.75452,
        "longitude": -122.40404,
        "total_trips": 14685,
        "member_trips": 12419,
        "casual_trips": 2266,
        "round_trips": 78
      },
      {
        "station_id": "SF-J29-3",
        "name": "San Francisco Caltrain Station - King St",
        "latitude": 37.77627,
        "longitude": -122.39451,
        "total_trips": 14625,
        "member_trips": 11201,
        "casual_trips": 3424,
        "round_trips": 80
      },
      {
        "station_id": "SF-G28-2",
        "name": "Howard St at Hawthorne St",
        "latitude": 37.78571,
        "longitude": -122.39975,
        "total_trips": 14584,
        "member_trips": 11932,
        "casual_trips": 2652,
        "round_trips": 81
      },
      {
        "station_id": "SF-F27-2",
        "name": "Kearny St at Bush St",
        "latitude": 37.790962,
        "longitude": -122.4042,
        "total_trips": 14560,
        "member_trips": 12063,
        "casual_trips": 2497,
        "round_trips": 117
      },
      {
        "station_id": "SF-K27-3",
        "name": "Brannan St at Harriet St",
        "latitude": 37.774258,
        "longitude": -122.40185,
        "total_trips": 14347,
        "member_trips": 12361,
        "casual_trips": 1986,
        "round_trips": 93
      },
      {
        "station_id": "SJ-M7-1",
        "name": "San Jose Diridon Station",
        "latitude": 37.32973,
        "longitude": -121.90178,
        "total_trips": 14259,
        "member_trips": 10889,
        "casual_trips": 3370,
        "round_trips": 137
      },
      {
        "station_id": "SF-B28",
        "name": "Cruise Terminal at Pier 27",
        "latitude": 37.80465,
        "longitude": -122.402084,
        "total_trips": 14095,
        "member_trips": 8760,
        "casual_trips": 5335,
        "round_trips": 430
      },
      {
        "station_id": "OK-K5-2",
        "name": "19th Street BART",
        "latitude": 37.80937,
        "longitude": -122.26795,
        "total_trips": 14051,
        "member_trips": 10320,
        "casual_trips": 3731,
        "round_trips": 87
      },
      {
        "station_id": "SF-K30-2",
        "name": "China Basin St at 3rd St",
        "latitude": 37.772,
        "longitude": -122.38997,
        "total_trips": 13896,
        "member_trips": 11831,
        "casual_trips": 2065,
        "round_trips": 130
      },
      {
        "station_id": "SF-I26",
        "name": "5th St at Howard St",
        "latitude": 37.781334,
        "longitude": -122.40482,
        "total_trips": 13845,
        "member_trips": 11467,
        "casual_trips": 2378,
        "round_trips": 97
      },
      {
        "station_id": "SF-G23",
        "name": "Myrtle St at Polk St",
        "latitude": 37.78548,
        "longitude": -122.41934,
        "total_trips": 13808,
        "member_trips": 10869,
        "casual_trips": 2939,
        "round_trips": 234
      },
      {
        "station_id": "SF-Q21-1",
        "name": "22nd St at Dolores St",
        "latitude": 37.75498,
        "longitude": -122.42578,
        "total_trips": 13641,
        "member_trips": 11487,
        "casual_trips": 2154,
        "round_trips": 95
      },
      {
        "station_id": "SF-M28",
        "name": "Hubbell St at 16th St",
        "latitude": 37.766594,
        "longitude": -122.3982,
        "total_trips": 13554,
        "member_trips": 11359,
        "casual_trips": 2195,
        "round_trips": 118
      },
      {
        "station_id": "SF-M24",
        "name": "Folsom St at 15th St",
        "latitude": 37.767036,
        "longitude": -122.41544,
        "total_trips": 13493,
        "member_trips": 11793,
        "casual_trips": 1700,
        "round_trips": 84
      },
      {
        "station_id": "SF-E21",
        "name": "Lafayette Park",
        "latitude": 37.791965,
        "longitude": -122.42931,
        "total_trips": 13412,
        "member_trips": 10937,
        "casual_trips": 2475,
        "round_trips": 143
      },
      {
        "station_id": "SF-C28-1",
        "name": "The Embarcadero at Vallejo St",
        "latitude": 37.799953,
        "longitude": -122.39852,
        "total_trips": 13365,
        "member_trips": 9578,
        "casual_trips": 3787,
        "round_trips": 192
      },
      {
        "station_id": "SF-R20",
        "name": "Jersey St at Church St",
        "latitude": 37.750923,
        "longitude": -122.42757,
        "total_trips": 13302,
        "member_trips": 11102,
        "casual_trips": 2200,
        "round_trips": 157
      },
      {
        "station_id": "BK-C9",
        "name": "Euclid Ave at Hearst Ave",
        "latitude": 37.87532,
        "longitude": -122.260155,
        "total_trips": 13173,
        "member_trips": 10922,
        "casual_trips": 2251,
        "round_trips": 145
      },
      {
        "station_id": "SF-J10",
        "name": "Funston Ave at Fulton St",
        "latitude": 37.773586,
        "longitude": -122.47136,
        "total_trips": 13144,
        "member_trips": 6439,
        "casual_trips": 6705,
        "round_trips": 493
      },
      {
        "station_id": "SF-L24-2",
        "name": "Harrison St at 14th St",
        "latitude": 37.768894,
        "longitude": -122.413635,
        "total_trips": 12999,
        "member_trips": 10697,
        "casual_trips": 2302,
        "round_trips": 62
      },
      {
        "station_id": "SF-H26-2",
        "name": "Mint St at Mission St",
        "latitude": 37.78228,
        "longitude": -122.40731,
        "total_trips": 12668,
        "member_trips": 10545,
        "casual_trips": 2123,
        "round_trips": 140
      },
      {
        "station_id": "SF-J13",
        "name": "McAllister St at Arguello Blvd",
        "latitude": 37.77533,
        "longitude": -122.45811,
        "total_trips": 12620,
        "member_trips": 9099,
        "casual_trips": 3521,
        "round_trips": 227
      },
      {
        "station_id": "SF-D27-3",
        "name": "Jackson St at Sansome St",
        "latitude": 37.796726,
        "longitude": -122.40166,
        "total_trips": 12542,
        "member_trips": 10319,
        "casual_trips": 2223,
        "round_trips": 100
      },
      {
        "station_id": "SF-M27",
        "name": "8th St at Hooper St",
        "latitude": 37.767258,
        "longitude": -122.40033,
        "total_trips": 12520,
        "member_trips": 10643,
        "casual_trips": 1877,
        "round_trips": 76
      },
      {
        "station_id": "SF-H20",
        "name": "Webster St at O'Farrell St",
        "latitude": 37.78352,
        "longitude": -122.43116,
        "total_trips": 12469,
        "member_trips": 10047,
        "casual_trips": 2422,
        "round_trips": 89
      },
      {
        "station_id": "SF-F15",
        "name": "Spruce St at California St",
        "latitude": 37.78658,
        "longitude": -122.45342,
        "total_trips": 12460,
        "member_trips": 9340,
        "casual_trips": 3120,
        "round_trips": 168
      },
      {
        "station_id": "SF-H30",
        "name": "The Embarcadero at Pier 38",
        "latitude": 37.782925,
        "longitude": -122.387924,
        "total_trips": 12336,
        "member_trips": 7897,
        "casual_trips": 4439,
        "round_trips": 153
      },
      {
        "station_id": "SF-A24-2",
        "name": "Francisco St at Columbus Ave",
        "latitude": 37.804455,
        "longitude": -122.415794,
        "total_trips": 12296,
        "member_trips": 7898,
        "casual_trips": 4398,
        "round_trips": 199
      },
      {
        "station_id": "SF-K31",
        "name": "China Basin Park",
        "latitude": 37.775974,
        "longitude": -122.38781,
        "total_trips": 12101,
        "member_trips": 9571,
        "casual_trips": 2530,
        "round_trips": 239
      },
      {
        "station_id": "SF-J15",
        "name": "Parker Ave at McAllister St",
        "latitude": 37.7761,
        "longitude": -122.453094,
        "total_trips": 11992,
        "member_trips": 9841,
        "casual_trips": 2151,
        "round_trips": 164
      },
      {
        "station_id": "SF-M8",
        "name": "Irving St at 21st Ave",
        "latitude": 37.763527,
        "longitude": -122.47949,
        "total_trips": 11968,
        "member_trips": 7688,
        "casual_trips": 4280,
        "round_trips": 329
      },
      {
        "station_id": "SF-N1",
        "name": "Great Highway at Judah St",
        "latitude": 37.760525,
        "longitude": -122.50951,
        "total_trips": 11887,
        "member_trips": 5672,
        "casual_trips": 6215,
        "round_trips": 627
      },
      {
        "station_id": "OK-B4",
        "name": "Rockridge BART",
        "latitude": 37.84428,
        "longitude": -122.2519,
        "total_trips": 11880,
        "member_trips": 9450,
        "casual_trips": 2430,
        "round_trips": 103
      },
      {
        "station_id": "SJ-L7-2",
        "name": "The Alameda at Bush St",
        "latitude": 37.331932,
        "longitude": -121.90489,
        "total_trips": 11686,
        "member_trips": 10326,
        "casual_trips": 1360,
        "round_trips": 233
      },
      {
        "station_id": "SF-I20",
        "name": "Turk St at Fillmore St",
        "latitude": 37.78045,
        "longitude": -122.431946,
        "total_trips": 11656,
        "member_trips": 9735,
        "casual_trips": 1921,
        "round_trips": 109
      },
      {
        "station_id": "SJ-N11",
        "name": "San Salvador St at 9th St",
        "latitude": 37.333954,
        "longitude": -121.87735,
        "total_trips": 11632,
        "member_trips": 10482,
        "casual_trips": 1150,
        "round_trips": 639
      },
      {
        "station_id": "SF-E28-4",
        "name": "Pine St at Market St",
        "latitude": 37.792458,
        "longitude": -122.39793,
        "total_trips": 11601,
        "member_trips": 9662,
        "casual_trips": 1939,
        "round_trips": 81
      },
      {
        "station_id": "SF-T20",
        "name": "29th St at Church St",
        "latitude": 37.743683,
        "longitude": -122.4268,
        "total_trips": 11457,
        "member_trips": 9420,
        "casual_trips": 2037,
        "round_trips": 177
      },
      {
        "station_id": "SF-G8-1",
        "name": "Anza St at 19th Ave",
        "latitude": 37.778557,
        "longitude": -122.47799,
        "total_trips": 11333,
        "member_trips": 7454,
        "casual_trips": 3879,
        "round_trips": 207
      },
      {
        "station_id": "SF-M3",
        "name": "41st Ave at Irving St",
        "latitude": 37.76265,
        "longitude": -122.50078,
        "total_trips": 11152,
        "member_trips": 6006,
        "casual_trips": 5146,
        "round_trips": 286
      },
      {
        "station_id": "SF-J3",
        "name": "38th Ave at Balboa St",
        "latitude": 37.77552,
        "longitude": -122.4985,
        "total_trips": 11140,
        "member_trips": 7284,
        "casual_trips": 3856,
        "round_trips": 222
      },
      {
        "station_id": "SF-M12",
        "name": "7th Ave at Irving St",
        "latitude": 37.763435,
        "longitude": -122.464066,
        "total_trips": 11084,
        "member_trips": 7996,
        "casual_trips": 3088,
        "round_trips": 164
      },
      {
        "station_id": "SF-G5",
        "name": "Clement St at 32nd Ave",
        "latitude": 37.781723,
        "longitude": -122.49284,
        "total_trips": 10945,
        "member_trips": 6509,
        "casual_trips": 4436,
        "round_trips": 249
      },
      {
        "station_id": "OK-I6",
        "name": "Bay Pl at Vernon St",
        "latitude": 37.812252,
        "longitude": -122.26072,
        "total_trips": 10815,
        "member_trips": 7552,
        "casual_trips": 3263,
        "round_trips": 148
      },
      {
        "station_id": "SF-E18",
        "name": "Divisadero St at Clay St",
        "latitude": 37.78959,
        "longitude": -122.44068,
        "total_trips": 10746,
        "member_trips": 8769,
        "casual_trips": 1977,
        "round_trips": 119
      },
      {
        "station_id": "SF-L27-2",
        "name": "7th St at King St",
        "latitude": 37.77123,
        "longitude": -122.40089,
        "total_trips": 10746,
        "member_trips": 9254,
        "casual_trips": 1492,
        "round_trips": 68
      },
      {
        "station_id": "SF-B24-1",
        "name": "Taylor St at Columbus Ave",
        "latitude": 37.803307,
        "longitude": -122.414894,
        "total_trips": 10686,
        "member_trips": 8158,
        "casual_trips": 2528,
        "round_trips": 142
      },
      {
        "station_id": "SF-F25",
        "name": "Sutter St at Taylor St",
        "latitude": 37.788734,
        "longitude": -122.412155,
        "total_trips": 10589,
        "member_trips": 8327,
        "casual_trips": 2262,
        "round_trips": 101
      },
      {
        "station_id": "SF-F18",
        "name": "Scott St at California St",
        "latitude": 37.788048,
        "longitude": -122.43881,
        "total_trips": 10568,
        "member_trips": 8559,
        "casual_trips": 2009,
        "round_trips": 96
      },
      {
        "station_id": "OK-M7",
        "name": "Lake Merritt BART",
        "latitude": 37.79732,
        "longitude": -122.26532,
        "total_trips": 10450,
        "member_trips": 7419,
        "casual_trips": 3031,
        "round_trips": 91
      },
      {
        "station_id": "SF-I26-2",
        "name": "Howard St at 6th St",
        "latitude": 37.780266,
        "longitude": -122.40665,
        "total_trips": 10413,
        "member_trips": 8810,
        "casual_trips": 1603,
        "round_trips": 87
      },
      {
        "station_id": "SF-G11",
        "name": "9th Ave at Geary Blvd",
        "latitude": 37.78184,
        "longitude": -122.467636,
        "total_trips": 10293,
        "member_trips": 7680,
        "casual_trips": 2613,
        "round_trips": 150
      },
      {
        "station_id": "SJ-L9",
        "name": "San Pedro Square",
        "latitude": 37.336803,
        "longitude": -121.89409,
        "total_trips": 10221,
        "member_trips": 8318,
        "casual_trips": 1903,
        "round_trips": 464
      },
      {
        "station_id": "SF-L24",
        "name": "Folsom St at 13th St",
        "latitude": 37.770283,
        "longitude": -122.41546,
        "total_trips": 10178,
        "member_trips": 7887,
        "casual_trips": 2291,
        "round_trips": 62
      },
      {
        "station_id": "SF-H0",
        "name": "Great Highway at Balboa St",
        "latitude": 37.77521,
        "longitude": -122.51121,
        "total_trips": 10063,
        "member_trips": 4863,
        "casual_trips": 5200,
        "round_trips": 376
      },
      {
        "station_id": "OK-I9",
        "name": "El Embarcadero at Grand Ave",
        "latitude": 37.808716,
        "longitude": -122.24925,
        "total_trips": 10035,
        "member_trips": 6662,
        "casual_trips": 3373,
        "round_trips": 351
      },
      {
        "station_id": "SF-R26",
        "name": "Potrero del Sol Park",
        "latitude": 37.751663,
        "longitude": -122.40525,
        "total_trips": 9945,
        "member_trips": 8143,
        "casual_trips": 1802,
        "round_trips": 138
      },
      {
        "station_id": "SF-J27",
        "name": "Bryant St at 6th St",
        "latitude": 37.775833,
        "longitude": -122.402695,
        "total_trips": 9903,
        "member_trips": 8051,
        "casual_trips": 1852,
        "round_trips": 81
      },
      {
        "station_id": "SF-G7",
        "name": "23rd Ave at Clement St",
        "latitude": 37.78193,
        "longitude": -122.48279,
        "total_trips": 9845,
        "member_trips": 6372,
        "casual_trips": 3473,
        "round_trips": 214
      },
      {
        "station_id": "BK-H6",
        "name": "Ashby BART",
        "latitude": 37.852478,
        "longitude": -122.27021,
        "total_trips": 9798,
        "member_trips": 7790,
        "casual_trips": 2008,
        "round_trips": 72
      },
      {
        "station_id": "SF-M30-3",
        "name": "Illinois St at 16th St",
        "latitude": 37.766678,
        "longitude": -122.38818,
        "total_trips": 9721,
        "member_trips": 7744,
        "casual_trips": 1977,
        "round_trips": 82
      },
      {
        "station_id": "SF-G17",
        "name": "Post St at Baker St",
        "latitude": 37.783974,
        "longitude": -122.44288,
        "total_trips": 9702,
        "member_trips": 7719,
        "casual_trips": 1983,
        "round_trips": 94
      },
      {
        "station_id": "SF-N22-1A",
        "name": "16th St Mission BART South",
        "latitude": 37.764683,
        "longitude": -122.41993,
        "total_trips": 9505,
        "member_trips": 8269,
        "casual_trips": 1236,
        "round_trips": 70
      },
      {
        "station_id": "SF-H12",
        "name": "5th Ave at Anza St",
        "latitude": 37.77953,
        "longitude": -122.46311,
        "total_trips": 9466,
        "member_trips": 6951,
        "casual_trips": 2515,
        "round_trips": 145
      },
      {
        "station_id": "SF-F16",
        "name": "Laurel St at California St",
        "latitude": 37.78661,
        "longitude": -122.45005,
        "total_trips": 9435,
        "member_trips": 7530,
        "casual_trips": 1905,
        "round_trips": 87
      },
      {
        "station_id": "SF-J1",
        "name": "48th Ave at Cabrillo St",
        "latitude": 37.77294,
        "longitude": -122.509056,
        "total_trips": 9428,
        "member_trips": 5151,
        "casual_trips": 4277,
        "round_trips": 261
      },
      {
        "station_id": "OK-I8",
        "name": "Grand Ave at Perkins St",
        "latitude": 37.808895,
        "longitude": -122.25646,
        "total_trips": 9335,
        "member_trips": 6406,
        "casual_trips": 2929,
        "round_trips": 254
      },
      {
        "station_id": "SJ-N10-1",
        "name": "4th St at San Carlos St",
        "latitude": 37.332798,
        "longitude": -121.88385,
        "total_trips": 9306,
        "member_trips": 8363,
        "casual_trips": 943,
        "round_trips": 344
      },
      {
        "station_id": "OK-J6-1",
        "name": "Grand Ave at Webster St",
        "latitude": 37.81138,
        "longitude": -122.26519,
        "total_trips": 9239,
        "member_trips": 6352,
        "casual_trips": 2887,
        "round_trips": 107
      },
      {
        "station_id": "BK-F8",
        "name": "Parker St at Fulton St",
        "latitude": 37.862465,
        "longitude": -122.26479,
        "total_trips": 9193,
        "member_trips": 7130,
        "casual_trips": 2063,
        "round_trips": 165
      },
      {
        "station_id": "SF-V23",
        "name": "Cortland Ave at Wool St",
        "latitude": 37.739082,
        "longitude": -122.417305,
        "total_trips": 9028,
        "member_trips": 7080,
        "casual_trips": 1948,
        "round_trips": 122
      },
      {
        "station_id": "OK-L5",
        "name": "Frank H Ogawa Plaza",
        "latitude": 37.80456,
        "longitude": -122.271736,
        "total_trips": 8839,
        "member_trips": 6500,
        "casual_trips": 2339,
        "round_trips": 231
      },
      {
        "station_id": "SF-M26",
        "name": "15th St at Potrero Ave",
        "latitude": 37.76708,
        "longitude": -122.40736,
        "total_trips": 8739,
        "member_trips": 7761,
        "casual_trips": 978,
        "round_trips": 67
      },
      {
        "station_id": "SJ-M10-4",
        "name": "Fountain Alley at S 2nd St",
        "latitude": 37.33619,
        "longitude": -121.889275,
        "total_trips": 8696,
        "member_trips": 7437,
        "casual_trips": 1259,
        "round_trips": 441
      },
      {
        "station_id": "SF-G6-1",
        "name": "26th Ave at Clement St",
        "latitude": 37.781757,
        "longitude": -122.48603,
        "total_trips": 8687,
        "member_trips": 5721,
        "casual_trips": 2966,
        "round_trips": 170
      },
      {
        "station_id": "SF-F24",
        "name": "Bush St at Leavenworth St",
        "latitude": 37.789425,
        "longitude": -122.41517,
        "total_trips": 8683,
        "member_trips": 6613,
        "casual_trips": 2070,
        "round_trips": 107
      },
      {
        "station_id": "SF-S1",
        "name": "Great Highway at Taraval St",
        "latitude": 37.741848,
        "longitude": -122.50706,
        "total_trips": 8649,
        "member_trips": 3751,
        "casual_trips": 4898,
        "round_trips": 1052
      },
      {
        "station_id": "OK-F6",
        "name": "40th St at Piedmont Ave",
        "latitude": 37.825787,
        "longitude": -122.25347,
        "total_trips": 8606,
        "member_trips": 6226,
        "casual_trips": 2380,
        "round_trips": 80
      },
      {
        "station_id": "SF-J5",
        "name": "34th Ave at Balboa St",
        "latitude": 37.77568,
        "longitude": -122.494064,
        "total_trips": 8379,
        "member_trips": 5633,
        "casual_trips": 2746,
        "round_trips": 172
      },
      {
        "station_id": "SF-M9-2",
        "name": "Irving St at 17th Ave",
        "latitude": 37.76372,
        "longitude": -122.47537,
        "total_trips": 8285,
        "member_trips": 5386,
        "casual_trips": 2899,
        "round_trips": 171
      },
      {
        "station_id": "SF-K28-3",
        "name": "Townsend St at 6th St",
        "latitude": 37.77324,
        "longitude": -122.4,
        "total_trips": 8083,
        "member_trips": 7280,
        "casual_trips": 803,
        "round_trips": 51
      },
      {
        "station_id": "SJ-M10-1",
        "name": "San Jose City Hall",
        "latitude": 37.33739,
        "longitude": -121.88699,
        "total_trips": 8069,
        "member_trips": 7045,
        "casual_trips": 1024,
        "round_trips": 391
      },
      {
        "station_id": "SF-E29-5",
        "name": "Main St at Market St",
        "latitude": 37.792847,
        "longitude": -122.39633,
        "total_trips": 8044,
        "member_trips": 6598,
        "casual_trips": 1446,
        "round_trips": 40
      },
      {
        "station_id": "SF-H25",
        "name": "Father Alfred E Boeddeker Park",
        "latitude": 37.784077,
        "longitude": -122.41193,
        "total_trips": 7946,
        "member_trips": 6156,
        "casual_trips": 1790,
        "round_trips": 231
      },
      {
        "station_id": "SF-P24-2",
        "name": "Folsom St at 21st St",
        "latitude": 37.75745,
        "longitude": -122.41464,
        "total_trips": 7893,
        "member_trips": 6751,
        "casual_trips": 1142,
        "round_trips": 53
      },
      {
        "station_id": "SF-G10-1",
        "name": "Funston Ave at Clement St",
        "latitude": 37.78244,
        "longitude": -122.471985,
        "total_trips": 7767,
        "member_trips": 5713,
        "casual_trips": 2054,
        "round_trips": 119
      },
      {
        "station_id": "SJ-M6",
        "name": "Cahill Park",
        "latitude": 37.329117,
        "longitude": -121.90458,
        "total_trips": 7759,
        "member_trips": 6839,
        "casual_trips": 920,
        "round_trips": 255
      },
      {
        "station_id": "SF-M10",
        "name": "Funston Ave at Irving St",
        "latitude": 37.763935,
        "longitude": -122.47065,
        "total_trips": 7746,
        "member_trips": 5629,
        "casual_trips": 2117,
        "round_trips": 116
      },
      {
        "station_id": "SJ-K5",
        "name": "Julian St at The Alameda",
        "latitude": 37.332233,
        "longitude": -121.91251,
        "total_trips": 7743,
        "member_trips": 6715,
        "casual_trips": 1028,
        "round_trips": 168
      },
      {
        "station_id": "BK-C6",
        "name": "MLK Jr Way at University Ave",
        "latitude": 37.87172,
        "longitude": -122.27307,
        "total_trips": 7736,
        "member_trips": 6407,
        "casual_trips": 1329,
        "round_trips": 118
      },
      {
        "station_id": "BK-G7",
        "name": "Oregon St at Adeline St",
        "latitude": 37.857567,
        "longitude": -122.267555,
        "total_trips": 7590,
        "member_trips": 6290,
        "casual_trips": 1300,
        "round_trips": 54
      },
      {
        "station_id": "SF-B15",
        "name": "Torney Ave at Lincoln Blvd",
        "latitude": 37.799675,
        "longitude": -122.4526,
        "total_trips": 7472,
        "member_trips": 4724,
        "casual_trips": 2748,
        "round_trips": 277
      },
      {
        "station_id": "OK-H5",
        "name": "Broadway at 30th St",
        "latitude": 37.81938,
        "longitude": -122.261925,
        "total_trips": 7415,
        "member_trips": 5236,
        "casual_trips": 2179,
        "round_trips": 55
      },
      {
        "station_id": "OK-D4",
        "name": "Telegraph Ave at 49th St",
        "latitude": 37.83575,
        "longitude": -122.26266,
        "total_trips": 7395,
        "member_trips": 5274,
        "casual_trips": 2121,
        "round_trips": 91
      },
      {
        "station_id": "SF-M7",
        "name": "25th Ave at Irving St",
        "latitude": 37.763443,
        "longitude": -122.48355,
        "total_trips": 7337,
        "member_trips": 4569,
        "casual_trips": 2768,
        "round_trips": 187
      },
      {
        "station_id": "SF-F9",
        "name": "18th Ave at California St",
        "latitude": 37.78511,
        "longitude": -122.47767,
        "total_trips": 7319,
        "member_trips": 5010,
        "casual_trips": 2309,
        "round_trips": 222
      },
      {
        "station_id": "SF-Outside Lands-Temp",
        "name": "Outside Lands",
        "latitude": 37.77064,
        "longitude": -122.47969,
        "total_trips": 7308,
        "member_trips": 2294,
        "casual_trips": 5014,
        "round_trips": 179
      },
      {
        "station_id": "BK-A7",
        "name": "Vine St at Shattuck Ave",
        "latitude": 37.880222,
        "longitude": -122.26959,
        "total_trips": 7298,
        "member_trips": 5541,
        "casual_trips": 1757,
        "round_trips": 79
      },
      {
        "station_id": "BK-D7-2",
        "name": "Berkeley Civic Center",
        "latitude": 37.86906,
        "longitude": -122.27055,
        "total_trips": 7261,
        "member_trips": 5430,
        "casual_trips": 1831,
        "round_trips": 78
      },
      {
        "station_id": "BK-E9-2",
        "name": "Haste St at Telegraph Ave",
        "latitude": 37.866043,
        "longitude": -122.258804,
        "total_trips": 7206,
        "member_trips": 5486,
        "casual_trips": 1720,
        "round_trips": 170
      },
      {
        "station_id": "SJ-K6",
        "name": "N Morrison Ave at W Julian St",
        "latitude": 37.333675,
        "longitude": -121.908615,
        "total_trips": 7174,
        "member_trips": 6834,
        "casual_trips": 340,
        "round_trips": 189
      },
      {
        "station_id": "OK-K9",
        "name": "2nd Ave at E 18th St",
        "latitude": 37.800213,
        "longitude": -122.25381,
        "total_trips": 7138,
        "member_trips": 4673,
        "casual_trips": 2465,
        "round_trips": 142
      },
      {
        "station_id": "BK-F10",
        "name": "Derby St at College Ave",
        "latitude": 37.86176,
        "longitude": -122.25368,
        "total_trips": 7121,
        "member_trips": 5360,
        "casual_trips": 1761,
        "round_trips": 118
      },
      {
        "station_id": "SF-H19",
        "name": "Ellis St at Pierce St",
        "latitude": 37.782032,
        "longitude": -122.435715,
        "total_trips": 7034,
        "member_trips": 5899,
        "casual_trips": 1135,
        "round_trips": 65
      },
      {
        "station_id": "SF-S21",
        "name": "Cesar Chavez St at Dolores St",
        "latitude": 37.74786,
        "longitude": -122.42499,
        "total_trips": 7024,
        "member_trips": 5849,
        "casual_trips": 1175,
        "round_trips": 59
      },
      {
        "station_id": "BK-E8",
        "name": "Fulton St at Bancroft Way",
        "latitude": 37.868134,
        "longitude": -122.26594,
        "total_trips": 6971,
        "member_trips": 5672,
        "casual_trips": 1299,
        "round_trips": 90
      },
      {
        "station_id": "SF-D25",
        "name": "Taylor St at Pacific Ave",
        "latitude": 37.796207,
        "longitude": -122.41337,
        "total_trips": 6854,
        "member_trips": 5446,
        "casual_trips": 1408,
        "round_trips": 72
      },
      {
        "station_id": "SF-H15",
        "name": "Anza St at Collins St",
        "latitude": 37.78068,
        "longitude": -122.45001,
        "total_trips": 6769,
        "member_trips": 4972,
        "casual_trips": 1797,
        "round_trips": 95
      },
      {
        "station_id": "SF-H13",
        "name": "Arguello Blvd at Edward St",
        "latitude": 37.77849,
        "longitude": -122.45865,
        "total_trips": 6741,
        "member_trips": 5109,
        "casual_trips": 1632,
        "round_trips": 109
      },
      {
        "station_id": "SF-C25-2",
        "name": "Powell St at Green St",
        "latitude": 37.799145,
        "longitude": -122.41069,
        "total_trips": 6614,
        "member_trips": 4856,
        "casual_trips": 1758,
        "round_trips": 98
      },
      {
        "station_id": "BK-E7",
        "name": "Channing Way at Shattuck Ave",
        "latitude": 37.865845,
        "longitude": -122.26744,
        "total_trips": 6393,
        "member_trips": 4756,
        "casual_trips": 1637,
        "round_trips": 103
      },
      {
        "station_id": "SF-W19",
        "name": "Glen Park BART",
        "latitude": 37.73281,
        "longitude": -122.43414,
        "total_trips": 6386,
        "member_trips": 5051,
        "casual_trips": 1335,
        "round_trips": 73
      },
      {
        "station_id": "OK-H9-1",
        "name": "Grand Ave at Santa Clara Ave",
        "latitude": 37.812744,
        "longitude": -122.247215,
        "total_trips": 6378,
        "member_trips": 4472,
        "casual_trips": 1906,
        "round_trips": 75
      },
      {
        "station_id": "BK-C8",
        "name": "University Ave at Oxford St",
        "latitude": 37.872356,
        "longitude": -122.26645,
        "total_trips": 6370,
        "member_trips": 5376,
        "casual_trips": 994,
        "round_trips": 184
      },
      {
        "station_id": "BK-H9",
        "name": "Telegraph Ave at Ashby Ave",
        "latitude": 37.855957,
        "longitude": -122.259796,
        "total_trips": 6364,
        "member_trips": 5165,
        "casual_trips": 1199,
        "round_trips": 171
      },
      {
        "station_id": "SF-H18",
        "name": "O'Farrell St at Divisadero St",
        "latitude": 37.782406,
        "longitude": -122.439445,
        "total_trips": 6356,
        "member_trips": 4969,
        "casual_trips": 1387,
        "round_trips": 73
      },
      {
        "station_id": "SF-G10-2",
        "name": "14th Ave at Geary Blvd",
        "latitude": 37.780365,
        "longitude": -122.47281,
        "total_trips": 6314,
        "member_trips": 4578,
        "casual_trips": 1736,
        "round_trips": 82
      },
      {
        "station_id": "OK-K5-1",
        "name": "Telegraph Ave at 19th St",
        "latitude": 37.8087,
        "longitude": -122.26993,
        "total_trips": 6309,
        "member_trips": 4452,
        "casual_trips": 1857,
        "round_trips": 81
      },
      {
        "station_id": "SJ-O10",
        "name": "Pierce Ave at Market St",
        "latitude": 37.32758,
        "longitude": -121.88456,
        "total_trips": 6156,
        "member_trips": 5176,
        "casual_trips": 980,
        "round_trips": 286
      },
      {
        "station_id": "SF-G9",
        "name": "17th Ave at Geary Blvd",
        "latitude": 37.78072,
        "longitude": -122.476105,
        "total_trips": 6097,
        "member_trips": 4250,
        "casual_trips": 1847,
        "round_trips": 63
      },
      {
        "station_id": "BK-F9",
        "name": "Telegraph Ave at Carleton St",
        "latitude": 37.86232,
        "longitude": -122.258804,
        "total_trips": 6054,
        "member_trips": 4024,
        "casual_trips": 2030,
        "round_trips": 80
      },
      {
        "station_id": "OK-N6",
        "name": "Webster St at 2nd St",
        "latitude": 37.795197,
        "longitude": -122.27397,
        "total_trips": 5897,
        "member_trips": 4121,
        "casual_trips": 1776,
        "round_trips": 167
      },
      {
        "station_id": "SF-S22-2",
        "name": "Guerrero Park",
        "latitude": 37.74574,
        "longitude": -122.42214,
        "total_trips": 5805,
        "member_trips": 4623,
        "casual_trips": 1182,
        "round_trips": 21
      },
      {
        "station_id": "SJ-M10-3",
        "name": "Paseo De San Antonio at 2nd St",
        "latitude": 37.333797,
        "longitude": -121.88694,
        "total_trips": 5743,
        "member_trips": 4588,
        "casual_trips": 1155,
        "round_trips": 247
      },
      {
        "station_id": "SJ-M11-1",
        "name": "Santa Clara St at 7th St",
        "latitude": 37.339146,
        "longitude": -121.8841,
        "total_trips": 5675,
        "member_trips": 5220,
        "casual_trips": 455,
        "round_trips": 103
      },
      {
        "station_id": "SF-I16",
        "name": "Masonic Ave at Turk St",
        "latitude": 37.779045,
        "longitude": -122.44729,
        "total_trips": 5675,
        "member_trips": 4217,
        "casual_trips": 1458,
        "round_trips": 71
      },
      {
        "station_id": "OK-L7-2",
        "name": "Lakeside Dr at 14th St",
        "latitude": 37.80132,
        "longitude": -122.26264,
        "total_trips": 5566,
        "member_trips": 3806,
        "casual_trips": 1760,
        "round_trips": 304
      },
      {
        "station_id": "BK-D1",
        "name": "Addison St at Fourth St",
        "latitude": 37.86625,
        "longitude": -122.29937,
        "total_trips": 5462,
        "member_trips": 3388,
        "casual_trips": 2074,
        "round_trips": 339
      },
      {
        "station_id": "SF-T21",
        "name": "30th St at San Jose Ave",
        "latitude": 37.742313,
        "longitude": -122.42318,
        "total_trips": 5441,
        "member_trips": 4454,
        "casual_trips": 987,
        "round_trips": 40
      },
      {
        "station_id": "SF-C14",
        "name": "MacArthur Ave at Fernandez St",
        "latitude": 37.796593,
        "longitude": -122.45569,
        "total_trips": 5390,
        "member_trips": 4221,
        "casual_trips": 1169,
        "round_trips": 114
      },
      {
        "station_id": "BK-F7",
        "name": "Milvia St at Derby St",
        "latitude": 37.860126,
        "longitude": -122.26939,
        "total_trips": 5380,
        "member_trips": 4224,
        "casual_trips": 1156,
        "round_trips": 71
      },
      {
        "station_id": "HS-1",
        "name": "Hardly Strictly Bluegrass",
        "latitude": 37.770863,
        "longitude": -122.47875,
        "total_trips": 5335,
        "member_trips": 2282,
        "casual_trips": 3053,
        "round_trips": 82
      },
      {
        "station_id": "OK-J5",
        "name": "23rd St at Telegraph Ave",
        "latitude": 37.81258,
        "longitude": -122.26857,
        "total_trips": 5331,
        "member_trips": 3797,
        "casual_trips": 1534,
        "round_trips": 73
      },
      {
        "station_id": "SF-J14",
        "name": "Turk Blvd at Stanyan St",
        "latitude": 37.777626,
        "longitude": -122.45462,
        "total_trips": 5320,
        "member_trips": 4470,
        "casual_trips": 850,
        "round_trips": 72
      },
      {
        "station_id": "SF-H17",
        "name": "Saint Joseph's Ave at Geary Blvd",
        "latitude": 37.782574,
        "longitude": -122.4422,
        "total_trips": 5304,
        "member_trips": 4545,
        "casual_trips": 759,
        "round_trips": 35
      },
      {
        "station_id": "OK-K7",
        "name": "Madison St at 17th St",
        "latitude": 37.804035,
        "longitude": -122.26241,
        "total_trips": 5247,
        "member_trips": 3874,
        "casual_trips": 1373,
        "round_trips": 171
      },
      {
        "station_id": "BK-C5",
        "name": "North Berkeley BART",
        "latitude": 37.873856,
        "longitude": -122.28299,
        "total_trips": 5225,
        "member_trips": 3301,
        "casual_trips": 1924,
        "round_trips": 136
      },
      {
        "station_id": "SF-D8",
        "name": "Lincoln Blvd at Bowley St",
        "latitude": 37.79207,
        "longitude": -122.48121,
        "total_trips": 5216,
        "member_trips": 2201,
        "casual_trips": 3015,
        "round_trips": 226
      },
      {
        "station_id": "SJ-P10",
        "name": "5th St at Virginia St",
        "latitude": 37.326,
        "longitude": -121.87712,
        "total_trips": 5184,
        "member_trips": 4856,
        "casual_trips": 328,
        "round_trips": 183
      },
      {
        "station_id": "SJ-M11-3",
        "name": "9th St at San Fernando St",
        "latitude": 37.338394,
        "longitude": -121.8808,
        "total_trips": 5148,
        "member_trips": 4640,
        "casual_trips": 508,
        "round_trips": 141
      },
      {
        "station_id": "SF-F28-5",
        "name": "Sutter St at Montgomery St",
        "latitude": 37.790043,
        "longitude": -122.40199,
        "total_trips": 5062,
        "member_trips": 4325,
        "casual_trips": 737,
        "round_trips": 33
      },
      {
        "station_id": "SF-O12",
        "name": "7th Ave at Lawton St",
        "latitude": 37.758953,
        "longitude": -122.46377,
        "total_trips": 5026,
        "member_trips": 3987,
        "casual_trips": 1039,
        "round_trips": 80
      },
      {
        "station_id": "SJ-K9",
        "name": "Ryland Park",
        "latitude": 37.342724,
        "longitude": -121.895615,
        "total_trips": 5012,
        "member_trips": 4445,
        "casual_trips": 567,
        "round_trips": 138
      },
      {
        "station_id": "BK-C7",
        "name": "Shattuck Ave at Hearst Ave",
        "latitude": 37.873676,
        "longitude": -122.268486,
        "total_trips": 4995,
        "member_trips": 3989,
        "casual_trips": 1006,
        "round_trips": 96
      },
      {
        "station_id": "SF-P1",
        "name": "Great Highway at Noriega St",
        "latitude": 37.753006,
        "longitude": -122.50854,
        "total_trips": 4986,
        "member_trips": 2183,
        "casual_trips": 2803,
        "round_trips": 307
      },
      {
        "station_id": "SF-H14",
        "name": "Stanyan St at Geary Blvd",
        "latitude": 37.780945,
        "longitude": -122.45628,
        "total_trips": 4851,
        "member_trips": 3868,
        "casual_trips": 983,
        "round_trips": 58
      },
      {
        "station_id": "BK-E10",
        "name": "Haste St at College Ave",
        "latitude": 37.866417,
        "longitude": -122.2538,
        "total_trips": 4743,
        "member_trips": 3692,
        "casual_trips": 1051,
        "round_trips": 75
      },
      {
        "station_id": "EM-C1",
        "name": "65th St at Hollis St",
        "latitude": 37.846783,
        "longitude": -122.291374,
        "total_trips": 4736,
        "member_trips": 3496,
        "casual_trips": 1240,
        "round_trips": 154
      },
      {
        "station_id": "BK-H3",
        "name": "Ninth St at Heinz Ave",
        "latitude": 37.852997,
        "longitude": -122.289444,
        "total_trips": 4722,
        "member_trips": 3481,
        "casual_trips": 1241,
        "round_trips": 89
      },
      {
        "station_id": "OK-E4",
        "name": "Shattuck Ave at Telegraph Ave",
        "latitude": 37.833538,
        "longitude": -122.263695,
        "total_trips": 4712,
        "member_trips": 3440,
        "casual_trips": 1272,
        "round_trips": 49
      },
      {
        "station_id": "OK-M6",
        "name": "Franklin St at 9th St",
        "latitude": 37.800514,
        "longitude": -122.27208,
        "total_trips": 4705,
        "member_trips": 3288,
        "casual_trips": 1417,
        "round_trips": 54
      },
      {
        "station_id": "SF-M4",
        "name": "36th Ave at Irving St",
        "latitude": 37.762897,
        "longitude": -122.49539,
        "total_trips": 4589,
        "member_trips": 2397,
        "casual_trips": 2192,
        "round_trips": 131
      },
      {
        "station_id": "SF-S30",
        "name": "Illinois St at Cesar Chavez St",
        "latitude": 37.750168,
        "longitude": -122.38654,
        "total_trips": 4489,
        "member_trips": 3075,
        "casual_trips": 1414,
        "round_trips": 70
      },
      {
        "station_id": "OK-F5",
        "name": "Broadway at 40th St",
        "latitude": 37.82776,
        "longitude": -122.256714,
        "total_trips": 4487,
        "member_trips": 3243,
        "casual_trips": 1244,
        "round_trips": 40
      },
      {
        "station_id": "OK-K10",
        "name": "21st St at 5th Ave",
        "latitude": 37.80046,
        "longitude": -122.24746,
        "total_trips": 4429,
        "member_trips": 3033,
        "casual_trips": 1396,
        "round_trips": 66
      },
      {
        "station_id": "OK-I5",
        "name": "Telegraph Ave at 27th St",
        "latitude": 37.816074,
        "longitude": -122.26788,
        "total_trips": 4368,
        "member_trips": 3226,
        "casual_trips": 1142,
        "round_trips": 56
      },
      {
        "station_id": "SJ-M8-1",
        "name": "Almaden Blvd at San Fernando St",
        "latitude": 37.331413,
        "longitude": -121.8932,
        "total_trips": 4332,
        "member_trips": 3398,
        "casual_trips": 934,
        "round_trips": 97
      },
      {
        "station_id": "OK-K1",
        "name": "Raimondi Park",
        "latitude": 37.81493,
        "longitude": -122.29295,
        "total_trips": 4207,
        "member_trips": 2825,
        "casual_trips": 1382,
        "round_trips": 111
      },
      {
        "station_id": "BK-B7",
        "name": "Virginia St at Shattuck Ave",
        "latitude": 37.87657,
        "longitude": -122.26953,
        "total_trips": 4196,
        "member_trips": 3107,
        "casual_trips": 1089,
        "round_trips": 69
      },
      {
        "station_id": "SF-P2",
        "name": "45th Ave at Noriega St",
        "latitude": 37.752808,
        "longitude": -122.50426,
        "total_trips": 4156,
        "member_trips": 2366,
        "casual_trips": 1790,
        "round_trips": 107
      },
      {
        "station_id": "SJ-N5",
        "name": "Sunol St at San Carlos St",
        "latitude": 37.323452,
        "longitude": -121.905975,
        "total_trips": 4143,
        "member_trips": 3368,
        "casual_trips": 775,
        "round_trips": 172
      },
      {
        "station_id": "EM-C1-2",
        "name": "Bay Street Plaza",
        "latitude": 37.834576,
        "longitude": -122.29206,
        "total_trips": 4119,
        "member_trips": 2505,
        "casual_trips": 1614,
        "round_trips": 207
      },